time,vehicle_id,location_x,location_y,location_z,velocity_x,velocity_y,velocity_z,acceleration_x,acceleration_y,acceleration_z,angular_velocity_x,angular_velocity_y,angular_velocity_z,rotation_roll,rotation_pitch,rotation_yaw,control_brake,control_throttle,control_steer,torque_curveX,torque_curveY
1708935551.7894862,648,-110.89388275146484,6.31925630569458,0.7461000084877014,0.0,0.0,-0.9800000786781311,0.0,0.0,-9.80000114440918,0.0,0.0,0.0,0.0,0.0,-0.13946533203125,0.0,0.3499999940395355,0.5,1000.0,420.0
1708935551.8545508,648,-110.89388275146484,6.31925630569458,0.34429991245269775,0.0,0.0,-2.940000295639038,0.0,0.0,-9.800000190734863,0.0,0.0,0.0,0.0,0.0,-0.13946533203125,0.0,0.3499999940395355,0.30000001192092896,1000.0,420.0
1708935551.923846,648,-110.8934555053711,6.319291114807129,-0.05572345480322838,0.00255070673301816,-0.003602503100410104,0.20728468894958496,0.02550717629492283,-0.03602492809295654,29.03936767578125,0.9231551885604858,-1.3749432563781738,-0.0013219746761023998,-0.0711669921875,0.07333573698997498,-0.1395263820886612,0.30000001192092896,0.0,0.004628762602806091,1000.0,420.0
1708935551.977163,648,-110.89324951171875,6.319265842437744,-0.027873115614056587,-0.00030170459649525583,0.001192950177937746,0.29369693994522095,-0.028524111956357956,0.047954536974430084,0.8641225099563599,-0.3505117893218994,0.168858602643013,0.00013764826871920377,-0.0633850023150444,0.10944011807441711,-0.1395568549633026,0.0,0.3499999940395355,0.004531600046902895,1000.0,420.0
1708935552.0363195,651,-112.30239868164062,2.822676658630371,0.7461000084877014,0.0,0.0,-0.9800000786781311,0.0,0.0,-9.80000114440918,0.0,0.0,0.0,0.0,0.0,-0.13946533203125,0.0,0.0,0.0,1000.0,420.0
1708935552.0363195,650,-51.40482711791992,-76.34429168701172,0.7441999912261963,0.0,0.0,-1.9600002765655518,0.0,0.0,-9.800002098083496,0.0,0.0,0.0,0.0,0.0,89.66251373291016,0.0,0.0,0.0,1000.0,420.0
1708935552.0363195,649,-43.836936950683594,76.78081512451172,0.6442995071411133,0.0,0.0,-2.940000295639038,0.0,0.0,-9.800000190734863,0.0,0.0,0.0,0.0,0.0,-89.62068939208984,0.0,0.3499999940395355,-5.91656134929508e-06,1000.0,420.0
1708935552.0363195,648,-110.89383697509766,6.319267272949219,0.018000755459070206,-0.00029593161889351904,0.0002644106571096927,0.03535393625497818,0.0028028003871440887,-0.0025640891399234533,-0.6271239519119263,-0.058589693158864975,0.15849144756793976,2.2875603463035077e-05,-0.007843017578125,0.012950037606060505,-0.1394348293542862,0.0,0.3499999940395355,-1.5412797438330017e-05,1000.0,420.0
1708935552.0363195,653,16.355600357055664,-0.9904930591583252,0.34429991245269775,0.0,0.0,-2.940000295639038,0.0,0.0,-9.800000190734863,0.0,0.0,0.0,0.0,0.0,179.86048889160156,0.0,0.0,0.0,1000.0,420.0
1708935552.0363195,652,17.84708023071289,-4.494134426116943,0.34429991245269775,0.0,0.0,-2.940000295639038,0.0,0.0,-9.800000190734863,0.0,0.0,0.0,0.0,0.0,179.86048889160156,0.0,0.0,0.0,1000.0,420.0
1708935552.2101948,651,-112.30239868164062,2.822676658630371,0.01796119660139084,2.202282075813855e-06,-4.4289006950748444e-07,-2.6966562271118164,2.20228212128859e-05,-4.428900865605101e-06,2.433440685272217,8.929400792112574e-05,-0.00014879707305226475,-3.3131286727439146e-06,0.0,0.0,-0.13946533203125,0.0,0.3499999940395355,4.110641782517632e-08,1000.0,420.0
1708935552.2101948,650,-51.40462112426758,-76.3431625366211,-0.006320647895336151,0.008027104660868645,0.004283812362700701,0.16579686105251312,0.08027105033397675,0.04283812269568443,40.85796356201172,2.4223530292510986,2.202353000640869,0.004220099188387394,0.0013332655653357506,0.15150724351406097,89.66259002685547,0.0,0.3499999940395355,0.009638950228691101,1000.0,420.0
1708935552.2101948,649,-43.836936950683594,76.78081512451172,-0.00552366254851222,6.514283541037003e-06,-0.000995943322777748,0.007463378831744194,6.514283450087532e-05,-0.009959433227777481,39.274627685546875,-0.5177149176597595,-0.666094958782196,0.003485918277874589,0.0,0.0,-89.62068939208984,0.30000001192092896,0.0,-5.9347662499931175e-06,1000.0,420.0
1708935552.2101948,648,-110.89388275146484,6.31926965713501,0.019895609468221664,-3.0068160413065925e-05,6.241759547265247e-05,-0.003020658390596509,0.0008567526238039136,-0.0006648898706771433,-0.09455890208482742,-0.013889292255043983,0.016049787402153015,1.1458685094112298e-06,-0.0018615724984556437,-0.0003961509501095861,-0.1394348293542862,0.0,0.3499999940395355,-1.252929178008344e-05,1000.0,420.0
1708935552.2101948,655,-47.32692337036133,75.25765991210938,-0.00552366254851222,6.50784431854845e-06,-0.0009959525195881724,0.007463378831744194,6.50784422759898e-05,-0.009959525428712368,39.274627685546875,-0.5177187919616699,-0.6660950779914856,0.0034859515726566315,0.0,0.0,-89.62068939208984,0.0,0.3499999940395355,-9.83816607913468e-06,1000.0,420.0
1708935552.2101948,654,-54.911869049072266,-77.22115325927734,-0.008802604861557484,0.010641733184456825,-0.001514858566224575,0.14250175654888153,0.10641732811927795,-0.01514858566224575,40.62500762939453,-0.029535626992583275,1.9454572200775146,-0.13435719907283783,-0.0967102125287056,0.16062554717063904,89.80802154541016,0.30000001192092896,0.0,0.006751548498868942,1000.0,420.0
1708935552.2101948,653,16.355175018310547,-0.9904946684837341,-0.0028036306612193584,0.0007869231048971415,-0.0009713375475257635,0.19896100461483002,0.004884753376245499,0.0022548914421349764,-0.9473509788513184,0.2379993498325348,-0.42834779620170593,0.00022404646733775735,-0.033081043511629105,0.07263905555009842,179.8604736328125,0.0,0.3499999940395355,7.39007955417037e-05,1000.0,420.0
1708935552.2101948,652,17.84665298461914,-4.494136333465576,-0.0028036118019372225,0.0007869492401368916,-0.0009712883620522916,0.19896115362644196,0.0048859016969799995,0.0022599059157073498,-0.947353720664978,0.2379608452320099,-0.42836230993270874,0.0002240449539385736,-0.033081043511629105,0.07263905555009842,179.8604736328125,0.0,0.3499999940395355,7.421360351145267e-05,1000.0,420.0
1708935552.421163,651,-112.30235290527344,2.8226866722106934,0.01800033450126648,-0.00029588129837065935,0.000264128262642771,0.035354603081941605,0.0027898671105504036,-0.0026337977033108473,-0.6271265745162964,-0.058614566922187805,0.15844711661338806,2.2979602363193408e-05,-0.00787353515625,0.012963698245584965,-0.13946533203125,0.0,0.3499999940395355,-1.9827897631330416e-05,1000.0,420.0
1708935552.421163,653,16.355520248413086,-0.9905034899711609,0.01800069771707058,0.0002959090634249151,-0.0002643256157170981,0.03535379469394684,-0.0027890088967978954,0.0026339655742049217,-0.6271257400512695,0.05857369676232338,-0.15847930312156677,2.28926473937463e-05,-0.007843017578125,0.012950037606060505,179.86048889160156,0.0,0.3499999940395355,-1.7441732779843733e-05,1000.0,420.0
1708935552.421163,649,-43.836971282958984,76.77983856201172,0.07546611875295639,0.0006354801007546484,-0.0928734764456749,-0.00032579421531409025,0.006013105623424053,-0.9290889501571655,-0.16500605642795563,0.2988796532154083,0.005766693037003279,-0.0020134190563112497,-0.00048828116268850863,-0.002807207638397813,-89.62078857421875,0.0,0.3499999940395355,2.2984737370279618e-05,1000.0,420.0
1708935552.421163,648,-110.54151916503906,6.318185806274414,0.01922725699841976,0.9123072624206543,-0.0022604460828006268,4.410743713378906e-05,0.6906998157501221,-0.0008169352076947689,0.0012658118503168225,0.0012550890678539872,0.05871163681149483,-0.00854561198502779,8.511882333550602e-05,-0.03286686912178993,-0.12344357371330261,0.0,0.3499999940395355,-0.0005070407642051578,1000.0,420.0
1708935552.421163,655,-47.32693099975586,75.25337982177734,0.07556407898664474,0.0011658979346975684,-0.17230156064033508,-0.0003250217414461076,0.011318165808916092,-1.723369836807251,-0.16499748826026917,0.41135358810424805,0.006537397857755423,0.0016883162315934896,-0.0004882813664153218,-0.011385925114154816,-89.62078857421875,0.0,0.3499999940395355,2.6864685423788615e-05,1000.0,420.0
1708935552.421163,654,-54.91084671020508,-77.22124481201172,0.06792215257883072,0.0008870602468959987,0.09310828149318695,0.006715850904583931,0.008872710168361664,0.9297361969947815,-0.11526115238666534,-0.01820596121251583,-0.6407994627952576,-0.0801471620798111,-0.1049804612994194,0.1388782262802124,89.72135925292969,0.0,0.3499999940395355,0.005020011682063341,1000.0,420.0
1708935552.421163,650,-51.404510498046875,-76.3071060180664,0.07254914939403534,-0.0004712353111244738,0.40811046957969666,-0.0038198851980268955,-0.0022574132308363914,2.359607458114624,-0.016027260571718216,-0.2523523271083832,-0.008391260169446468,0.7290374636650085,0.019631577655673027,0.04647260531783104,89.67953491210938,0.0,0.3499999940395355,0.00976430531591177,1000.0,420.0
1708935552.421163,652,17.759355545043945,-4.494020462036133,0.01989009790122509,-0.5628868937492371,0.0019391613313928246,-0.0027469443157315254,-1.141863465309143,0.0022543873637914658,0.013518333435058594,-0.000927868066355586,0.012101590633392334,-0.8373326063156128,-0.0007629393367096782,-0.06469555199146271,179.8491973876953,0.0,0.3499999940395355,-3.258085416746326e-05,1000.0,420.0
1708935552.712228,651,-112.15277862548828,2.8223352432250977,0.01978912390768528,0.6498479843139648,-0.0024861767888069153,-0.002744979690760374,0.5760568380355835,-0.02058003470301628,0.013547898270189762,0.001621978939510882,-0.14935554563999176,0.6476240158081055,-0.0009460447472520173,-0.05590509623289108,-0.134124755859375,0.0,0.3499999940395355,0.00012042411981383339,1000.0,420.0
1708935552.712228,650,-51.40433120727539,-76.25641632080078,0.07240987569093704,-0.0005466514267027378,0.5772981643676758,-0.002388820517808199,-0.00075416115578264,1.6918768882751465,0.014310646802186966,-0.0807366818189621,-0.010400970466434956,-0.2486323118209839,0.020161647349596024,0.03125494346022606,89.69852447509766,0.0,0.3499999940395355,0.007848336361348629,1000.0,420.0
1708935552.712228,649,-43.836097717285156,76.7050552368164,0.07547032833099365,0.0040730563923716545,-0.5183172225952148,-0.003436145605519414,0.004739321302622557,-1.1815855503082275,0.0071419705636799335,-0.03769844025373459,0.002378803677856922,0.7280477285385132,8.81221640156582e-05,-0.06423792243003845,-89.6474609375,0.0,0.3499999940395355,0.0010731727816164494,1000.0,420.0
1708935552.712228,648,-110.34934997558594,6.317789554595947,0.019192427396774292,1.0738834142684937,-0.0024579185992479324,3.7918089219601825e-05,0.8105790615081787,-0.0030068564228713512,-0.00018863676814362407,0.0008932806667871773,0.12692345678806305,0.01338981930166483,3.673147512017749e-05,-0.028932679444551468,-0.1261901706457138,0.0,0.3499999940395355,-0.00013142671377863735,1000.0,420.0
1708935552.712228,655,-47.32662582397461,75.2220230102539,0.07570254802703857,0.003942873794585466,-0.4232558310031891,-0.004151611123234034,0.02776975743472576,-2.50954270362854,-0.0382658913731575,0.31336116790771484,0.0165159460157156,-0.9431950449943542,5.319078263710253e-05,-0.050236038863658905,-89.62895965576172,0.0,0.3499999940395355,3.715181446750648e-05,1000.0,420.0
1708935552.712228,654,-54.91064453125,-77.19361877441406,0.06878802925348282,-0.0009586977539584041,0.36649447679519653,0.007992429658770561,-0.018457580357789993,2.7338619232177734,0.012765787541866302,0.08245471864938736,-0.7783641815185547,-0.04065600410103798,-0.019165046513080597,0.13118059933185577,89.7109146118164,0.0,0.3499999940395355,0.005005039274692535,1000.0,420.0
1708935552.712228,653,16.2042236328125,-0.9903694987297058,0.01960304193198681,-0.646408200263977,0.0017427698476240039,-0.001341323833912611,-0.9681987762451172,-0.00804771576076746,0.014051340520381927,-0.004951910115778446,0.19410787522792816,-0.4286414682865143,-0.00030517569393850863,-0.05655396357178688,179.83648681640625,0.0,0.3499999940395355,-2.587389462860301e-05,1000.0,420.0
1708935552.712228,652,17.69786834716797,-4.493899345397949,0.019596271216869354,-0.6625727415084839,9.04244152479805e-05,-0.001342344214208424,-0.9968584775924683,-0.018487369641661644,0.014046001248061657,0.02667236514389515,0.09801898896694183,-0.6030257344245911,0.000210862752282992,-0.05593924596905708,179.848876953125,0.0,0.3499999940395355,0.0002957268734462559,1000.0,420.0
1708935552.7877264,651,-111.99996948242188,2.822159767150879,0.019307879731059074,0.8272891640663147,-0.0006101157632656395,-0.0004767131758853793,0.980178713798523,0.009135374799370766,0.008647346869111061,-0.012630538083612919,-0.13389548659324646,-0.4887579679489136,0.00033393045305274427,-0.03793486952781677,-0.1443786472082138,0.0,0.3499999940395355,0.0015173822175711393,1000.0,420.0
1708935552.7877264,649,-43.83531951904297,76.57453918457031,0.07491309940814972,0.004748976789414883,-0.742974579334259,-0.0007974815089255571,-0.013965307734906673,-0.9205776453018188,0.011148452758789062,-0.11394387483596802,0.013461207039654255,0.2657630741596222,-0.0005798342172056437,-0.04910222813487053,-89.64242553710938,0.0,0.3499999940395355,0.0006465000915341079,1000.0,420.0
1708935552.7877264,650,-51.40381622314453,-75.95648193359375,0.07211686670780182,0.0020503958221524954,0.9185220003128052,0.0008659934974275529,0.0013102067168802023,0.6088674068450928,0.0019973753951489925,-0.05520220100879669,0.005309452302753925,-0.27362772822380066,0.018859542906284332,0.05070049315690994,89.7373046875,0.0,0.3499999940395355,0.0037977085448801517,1000.0,420.0
1708935552.7877264,648,-109.72810363769531,6.316314697265625,0.019199026748538017,1.4671274423599243,-0.0037489342503249645,-8.392333938900265e-07,0.7573342323303223,-0.003436517436057329,3.52859501617786e-06,0.0005210639792494476,0.10926605015993118,-0.013347717933356762,-0.00012207027612021193,-0.029144415631890297,-0.1302184760570526,0.0,0.3499999940395355,-0.00039564495091326535,1000.0,420.0
1708935552.7877264,655,-47.324275970458984,74.8755874633789,0.07464851438999176,0.006444255355745554,-0.8691919445991516,8.106231689453125e-06,0.006502494215965271,-0.35774290561676025,0.0022415160201489925,-0.13088677823543549,-0.004054991994053125,0.35972827672958374,0.000383654551114887,-0.030462641268968582,-89.62248992919922,0.0,0.3499999940395355,0.001025676028802991,1000.0,420.0
1708935552.7877264,654,-54.90987014770508,-76.77660369873047,0.06897842139005661,0.0005556228570640087,0.907957911491394,0.0006594276055693626,-0.010231905616819859,0.560266375541687,0.003029536921530962,0.03548793867230415,-0.01471794955432415,-0.613112211227417,0.020587904378771782,0.15522970259189606,89.73332214355469,0.0,0.3499999940395355,0.0036595254205167294,1000.0,420.0
1708935552.7877264,653,15.76418685913086,-0.9900116324424744,0.019130000844597816,-1.0355267524719238,0.001941176364198327,3.72409813280683e-05,-0.7841414213180542,0.010721607133746147,-0.00020303727069403976,-0.006831537000834942,0.046493176370859146,-0.6448387503623962,3.786141314776614e-05,-0.02346169762313366,179.79493713378906,0.0,0.3499999940395355,0.0013456891756504774,1000.0,420.0
1708935552.7877264,652,17.037338256835938,-4.491481781005859,0.01921089179813862,-1.258040189743042,0.003977135289460421,6.9046018325025216e-06,-0.796886682510376,0.010309860110282898,-0.00011329649714753032,-0.0010710179340094328,-0.1189003512263298,0.1028372198343277,-0.0002746581449173391,-0.030209925025701523,179.90013122558594,0.0,0.3499999940395355,-0.0017309474060311913,1000.0,420.0
1708935553.153271,651,-111.21810150146484,2.82027530670166,0.019190272316336632,1.3561680316925049,-0.0033414261415600777,1.363754222438729e-06,0.7683491706848145,-0.0013537728227674961,-5.8555600844556466e-05,-0.0003971522382926196,-0.12231530249118805,0.007737766019999981,2.776324618025683e-05,-0.02838626503944397,-0.1511535495519638,0.0,0.3499999940395355,0.00024302018573507667,1000.0,420.0
1708935553.153271,650,-51.403358459472656,-75.4151382446289,0.07283978909254074,0.002417198847979307,1.2723325490951538,0.0011728763347491622,0.010327758267521858,0.7587289810180664,0.0006146426312625408,-0.13116870820522308,0.005140350665897131,0.46179381012916565,0.019431501626968384,0.03121396340429783,89.7077865600586,0.0,0.3499999940395355,0.0036133599933236837,1000.0,420.0
1708935553.153271,649,-43.8299446105957,75.72525787353516,0.07464177906513214,0.008926649577915668,-1.341016173362732,5.722045557376987e-07,0.005120476707816124,-0.768958330154419,-2.3174286980065517e-05,-0.12276683747768402,-0.0010002913186326623,0.004852772690355778,3.0272280127974227e-05,-0.02846822701394558,-89.62504577636719,0.0,0.3499999940395355,0.0001570389576954767,1000.0,420.0
1708935553.153271,648,-108.54218292236328,6.313478469848633,0.019160708412528038,1.9664230346679688,-0.004690784029662609,-3.2424927098873013e-07,0.6737935543060303,-0.00047457870095968246,3.337860107421875e-06,0.00022307148901745677,0.09768959879875183,-0.0022329860366880894,4.83426520077046e-05,-0.0258181132376194,-0.1346740573644638,0.0,0.3499999940395355,-4.934413664159365e-05,1000.0,420.0
1708935553.153271,655,-47.31804275512695,74.05809783935547,0.07461605221033096,0.011834710836410522,-1.429763913154602,-5.245208853921213e-07,0.025727404281497,-0.7503604888916016,-1.2397767932270654e-06,0.06465532630681992,0.002758674556389451,0.28332898020744324,0.0009063433390110731,-0.02620743401348591,-89.6839599609375,0.0,0.3499999940395355,0.002909132046625018,1000.0,420.0
1708935553.153271,654,-54.90879821777344,-76.08516693115234,0.06996137648820877,0.010889336466789246,1.353674292564392,0.0011911772890016437,0.08487760275602341,0.7282471656799316,0.0005244254134595394,-0.01479884423315525,-0.003845306346192956,-0.8667944073677063,0.016220878809690475,0.1235649436712265,89.66695404052734,0.0,0.3499999940395355,-0.004098614677786827,1000.0,420.0
1708935553.153271,653,15.001910209655762,-0.9897958636283875,0.01916772872209549,-1.470930576324463,0.002817012369632721,-9.155273232863692e-07,-0.7216536998748779,0.0033800839446485043,1.7166138377433526e-06,-0.0019520174246281385,0.062459833920001984,-0.621881365776062,-0.00021362303232308477,-0.026426000520586967,179.71377563476562,0.0,0.3499999940395355,0.0034282254055142403,1000.0,420.0
1708935553.153271,652,16.483463287353516,-4.490139484405518,0.019190844148397446,-1.5651535987854004,0.003220523474738002,-9.346007914246002e-07,-0.7456755638122559,-0.0025058630853891373,-2.7656551537802443e-06,-0.0015874950913712382,-0.10804732888936996,-0.016291256994009018,0.0002683863276615739,-0.02846822701394558,179.9005126953125,0.0,0.3499999940395355,-0.00044694612734019756,1000.0,420.0
1708935553.407873,651,-110.6007080078125,2.8187060356140137,0.0191678237169981,1.655609369277954,-0.004106713924556971,-7.629394076502649e-07,0.7323348522186279,-0.000840858556330204,9.536745437799254e-07,-0.0004896374302916229,-0.11373128741979599,0.006221854127943516,2.738611692620907e-05,-0.026453321799635887,-0.1487426906824112,0.0,0.3499999940395355,0.0001615837827557698,1000.0,420.0
1708935553.407873,650,-51.40269088745117,-74.8533935546875,0.07363855093717575,0.005814682226628065,1.5590898990631104,0.0014115333324298263,0.024777913466095924,0.7180595397949219,0.0006118777673691511,-0.1269615888595581,-0.0006234640022739768,0.22446614503860474,0.018251722678542137,0.005313886795192957,89.65685272216797,0.0,0.3499999940395355,0.002261859830468893,1000.0,420.0
1708935553.407873,649,-43.82699203491211,75.27776336669922,0.0746239647269249,0.010429762303829193,-1.5677117109298706,-6.294250169958104e-07,0.005333637818694115,-0.7465744018554688,9.536734069115482e-08,-0.1156838983297348,-0.0006740086246281862,0.004409664776176214,1.8511214875616133e-05,-0.026917774230241776,-89.623779296875,0.0,0.3499999940395355,0.00012025320756947622,1000.0,420.0
1708935553.407873,648,-108.34483337402344,6.313004493713379,0.019154967740178108,2.0324478149414062,-0.004961617756634951,1.0013579867518274e-06,0.660247802734375,-0.0027083372697234154,1.3256072634248994e-05,0.0006096202414482832,0.09571132808923721,-0.005336080212146044,-3.051757266803179e-05,-0.02529902011156082,-0.135162353515625,0.0,0.3499999940395355,-0.00011595265823416412,1000.0,420.0
1708935553.407873,655,-47.31680679321289,73.91294860839844,0.07461627572774887,0.01000958401709795,-1.4974896907806396,-6.484985419774603e-07,-0.018251268193125725,-0.677257776260376,-1.23977656585339e-06,0.04655919596552849,-0.006020600441843271,0.3150239884853363,-0.0005187992355786264,-0.026241585612297058,-89.7027816772461,0.0,0.3499999940395355,0.001429675379768014,1000.0,420.0
1708935553.407873,654,-54.90812301635742,-75.7966079711914,0.07036411017179489,0.0052991751581430435,1.491970181465149,0.0013131331652402878,0.007213768549263477,0.6677150726318359,0.0006035796832293272,-0.005090378224849701,0.0004923972301185131,-0.6546432971954346,0.020776767283678055,0.11089494824409485,89.6327896118164,0.0,0.3499999940395355,0.0030263084918260574,1000.0,420.0
1708935553.407873,653,14.690041542053223,-0.9894132614135742,0.019154204055666924,-1.6089750528335571,0.0033112158998847008,3.337860050578456e-07,-0.6879246234893799,-0.006713760085403919,2.956390289909905e-06,-0.0009602578938938677,0.0616140179336071,-0.5845369100570679,1.959585461008828e-05,-0.025237547233700752,179.6865692138672,0.0,0.3499999940395355,0.004017916973680258,1000.0,420.0
1708935553.407873,652,15.989559173583984,-4.489082336425781,0.01917562447488308,-1.7820556163787842,0.004392759874463081,-8.48770127959142e-07,-0.710289478302002,0.0037182308733463287,9.536734069115482e-08,-0.000815254170447588,-0.10330895334482193,-0.033552877604961395,-0.00018310548330191523,-0.027122680097818375,179.8920440673828,0.0,0.3499999940395355,-0.0008173311362043023,1000.0,420.0
1708935553.6070225,651,-109.86820983886719,2.8168840408325195,0.019146708771586418,1.9354147911071777,-0.0047636679373681545,4.482269275740691e-07,0.6793773174285889,-0.0003424147143959999,1.3351441339182202e-06,-0.0006674979813396931,-0.1067163273692131,0.005289705004543066,1.009206516755512e-05,-0.024595510214567184,-0.1458435207605362,0.0,0.3499999940395355,0.00011774587619584054,1000.0,420.0
1708935553.6070225,648,-107.26179504394531,6.310390949249268,0.019127292558550835,2.342979907989502,-0.005728609394282103,1.23977656585339e-07,0.5954456329345703,-0.0016512256115674973,1.4305113609225373e-06,0.0002325612003915012,0.08549680560827255,-0.0039355275221168995,-3.051758176297881e-05,-0.02288796193897724,-0.1371154636144638,0.0,0.3499999940395355,-7.445966912200674e-05,1000.0,420.0
1708935553.6070225,649,-43.821102142333984,74.38676452636719,0.07459832727909088,0.0127648850902915,-1.9220409393310547,9.72747784544481e-07,0.00504910945892334,-0.6819784641265869,1.2302398317842744e-05,-0.10713108628988266,-0.0005505183944478631,0.0031069754622876644,2.0161231077509e-05,-0.024691132828593254,-89.62235260009766,0.0,0.3499999940395355,6.925825437065214e-05,1000.0,420.0
1708935553.6070225,650,-51.399539947509766,-73.80601501464844,0.07463233917951584,0.008496014401316643,1.9490939378738403,0.0004407977976370603,-0.0014624278992414474,0.6324958801269531,-0.0028917312156409025,-0.065467968583107,0.01987149566411972,0.37360450625419617,-0.0013427734375,-0.024896038696169853,89.58248901367188,0.0,0.3499999940395355,0.0038557136431336403,1000.0,420.0
1708935553.6070225,655,-47.30598068237305,72.50743865966797,0.07458019256591797,0.012983331456780434,-2.0242133140563965,4.0054320038507285e-07,0.0008139479905366898,-0.6204688549041748,-1.0490416570974048e-06,0.042436208575963974,0.0019035178702324629,0.37997087836265564,-0.00036621137405745685,-0.0231065284460783,-89.80084228515625,0.0,0.3499999940395355,0.003800013568252325,1000.0,420.0
1708935553.6070225,654,-54.90401077270508,-74.57888793945312,0.07356103509664536,0.005640675313770771,1.9472599029541016,0.0005798625643365085,-0.058118730783462524,0.6226897239685059,0.003159808926284313,0.01592029631137848,-0.07478097081184387,-0.446184366941452,-0.0460205040872097,0.009910603985190392,89.5690689086914,0.0,0.3499999940395355,0.005729637574404478,1000.0,420.0
1708935553.6070225,653,13.178853034973145,-0.9861951470375061,0.019116954877972603,-2.1217715740203857,0.0067250775173306465,2.8610228852699038e-08,-0.6029438972473145,0.01502967905253172,-2.7656553811539197e-06,-0.0014146390603855252,0.04748827591538429,-0.4684548079967499,-0.0006713866605423391,-0.022000038996338844,179.63967895507812,0.0,0.3499999940395355,0.003998870961368084,1000.0,420.0
1708935553.6070225,652,14.370685577392578,-4.485435485839844,0.01913101226091385,-2.3020248413085938,0.0050051044672727585,-5.435943535303522e-07,-0.6041789054870605,-0.004812530241906643,-2.28881845032447e-06,-0.0001337174471700564,-0.08695857226848602,0.00021909925271756947,0.000329269707435742,-0.02322264201939106,179.8750762939453,0.0,0.3499999940395355,9.119110472965986e-06,1000.0,420.0
1708935553.9886672,651,-108.57205200195312,2.8136706352233887,0.019114913418889046,2.3160409927368164,-0.005806616973131895,-7.343292054429185e-07,0.6029438972473145,-0.0029939040541648865,2.0980833141948096e-06,-0.00022698467364534736,-0.0937267616391182,-0.0006335309008136392,-9.155274165095761e-05,-0.021815622225403786,-0.143096923828125,0.0,0.3499999940395355,-1.3705067431146745e-05,1000.0,420.0
1708935553.9886672,650,-51.39570617675781,-72.98135375976562,0.07457675784826279,0.011057606898248196,2.191378116607666,-6.438255513785407e-05,0.0037082936614751816,0.5900430679321289,0.0005855560302734375,-0.03710091859102249,-0.0014957761159166694,0.3878074884414673,-0.00018310610903427005,-0.022368868812918663,89.54939270019531,0.0,0.3499999940395355,0.0037417036946862936,1000.0,420.0
1708935553.9886672,649,-43.81258773803711,73.09809875488281,0.07456641644239426,0.015298988670110703,-2.3041653633117676,-1.23977656585339e-07,0.004283040761947632,-0.6053709983825684,4.291534423828125e-06,-0.09415574371814728,-0.0006599703337997198,0.0021316315978765488,1.4738435311301146e-05,-0.021904416382312775,-89.6212158203125,0.0,0.3499999940395355,3.967567681684159e-05,1000.0,420.0
1708935553.9886672,648,-105.76712036132812,6.306771755218506,0.019096240401268005,2.6745457649230957,-0.006528201978653669,1.8119811784345075e-07,0.5228209495544434,-0.001908247359097004,2.2888182229507947e-06,0.00035602887510322034,0.07197611778974533,-0.0022560658399015665,0.0,-0.020176377147436142,-0.1383361965417862,0.0,0.3499999940395355,-3.814981027971953e-05,1000.0,420.0
1708935553.9886672,655,-47.30030822753906,71.65361785888672,0.07456405460834503,0.015378927811980247,-2.261432409286499,5.7220457705398076e-08,0.0017692334949970245,-0.5766773223876953,5.34057608092553e-06,0.03860635310411453,-0.0011967371683567762,0.44567131996154785,0.0004370003880467266,-0.021699510514736176,-89.81033325195312,0.0,0.3499999940395355,0.004758368246257305,1000.0,420.0
1708935553.9886672,654,-54.89916229248047,-73.52235412597656,0.07466716319322586,0.011426319368183613,2.2450246810913086,-0.0004377555742394179,-0.0058500561863183975,0.5794978141784668,-0.002051067305728793,0.06699224561452866,0.007888829335570335,-0.4441498816013336,0.0012430627830326557,-0.024356452748179436,89.54280853271484,0.0,0.3499999940395355,0.003780654165893793,1000.0,420.0
1708935553.9886672,653,12.038068771362305,-0.9830676317214966,0.019095534458756447,-2.406992197036743,0.006173519417643547,2.288818308215923e-07,-0.5490612983703613,-0.014585903845727444,3.52859501617786e-06,0.005338205955922604,0.043630920350551605,-0.3487015664577484,0.00011115895176772028,-0.020114906132221222,179.65634155273438,0.0,0.3499999940395355,0.004611308220773935,1000.0,420.0
1708935553.9886672,652,13.412266731262207,-4.4831953048706055,0.019109802320599556,-2.5312318801879883,0.00644681416451931,1.7166136956348055e-07,-0.5546689033508301,0.0046082958579063416,-4.19616708313697e-06,-0.0005236751749180257,-0.07819163799285889,-0.022182220593094826,-0.000244140625,-0.021364830434322357,179.86947631835938,0.0,0.3499999940395355,-0.00038796933949925005,1000.0,420.0
1708935554.2227666,651,-107.32847595214844,2.8106062412261963,0.019090307876467705,2.599468946456909,-0.006331710144877434,-4.1961669694501325e-07,0.543367862701416,0.0004607066512107849,-9.250640687241685e-06,-0.0006769992178305984,-0.08188269287347794,0.0032387820538133383,2.330608003831003e-05,-0.019650453701615334,-0.1417541354894638,0.0,0.3499999940395355,5.505406443262473e-05,1000.0,420.0
1708935554.2227666,654,-54.89678955078125,-73.05903625488281,0.07456731796264648,0.012401159852743149,2.3577747344970703,-0.00016084671369753778,0.0035613682121038437,0.5585289001464844,0.0015386580489575863,0.05099280923604965,0.0024945815093815327,-0.41552719473838806,0.000205151634872891,-0.02093452773988247,89.53917694091797,0.0,0.3499999940395355,0.0036671331617981195,1000.0,420.0
1708935554.2227666,649,-43.80610656738281,72.11882781982422,0.07454656064510345,0.01681724190711975,-2.534198045730591,-3.147125084979052e-07,0.0038437731564044952,-0.5572152137756348,1.144409225162235e-06,-0.0847952738404274,-0.0005362391239032149,0.0014451383613049984,1.3170959391572978e-05,-0.02014222741127014,-89.62078857421875,0.0,0.3499999940395355,2.4345499696210027e-05,1000.0,420.0
1708935554.2227666,648,-104.37644958496094,6.303401470184326,0.01907050982117653,2.9092555046081543,-0.007060087285935879,1.4305113893442467e-07,0.3704953193664551,-0.0005696527659893036,-1.1444091114753974e-06,8.947947208071128e-05,0.026123665273189545,-0.22966845333576202,0.0,-0.01794290542602539,-0.1396484524011612,0.0,0.3499999940395355,-1.5068850188981742e-05,1000.0,420.0
1708935554.2227666,655,-47.29447555541992,70.70809173583984,0.07454629987478256,0.013829445466399193,-2.481343984603882,-1.6212463549436507e-07,-0.018426068127155304,-0.5339670181274414,-4.19616708313697e-06,0.035196010023355484,-0.0009207152179442346,0.37478557229042053,-0.0008850106387399137,-0.02014222741127014,-89.80923461914062,0.0,0.3499999940395355,0.0030604074709117413,1000.0,420.0
1708935554.2227666,650,-51.38676452636719,-71.31658935546875,0.07453841716051102,0.014628340490162373,2.5741400718688965,3.7193296975601697e-07,-0.0012846291065216064,0.5150341987609863,-9.72747784544481e-06,-0.03367520496249199,-0.0024631640408188105,0.396189421415329,-3.0517407139996067e-05,-0.019438717514276505,89.53694152832031,0.0,0.3499999940395355,0.0033290241844952106,1000.0,420.0
1708935554.2227666,653,11.027470588684082,-0.9805129170417786,0.01907833106815815,-2.616076946258545,-0.001048447098582983,-2.9563904035967425e-07,-0.5069351196289062,-0.08236736059188843,-7.4386593951203395e-06,0.009753908962011337,0.04000263661146164,-0.07946177572011948,0.003922607284039259,-0.018584944307804108,179.69825744628906,0.0,0.3499999940395355,0.007981698960065842,1000.0,420.0
1708935554.2227666,652,12.3650484085083,-4.480714797973633,0.0190897174179554,-2.7412831783294678,0.006674846634268761,6.294250169958104e-07,-0.5077242851257324,0.0012346962466835976,6.771087555534905e-06,-0.0001042599105858244,-0.06878411024808884,-0.008989393711090088,-6.103515261202119e-05,-0.019616302102804184,179.8662109375,0.0,0.3499999940395355,-0.0001451678981538862,1000.0,420.0
1708935554.5233555,651,-105.95225524902344,2.8072316646575928,0.019068049266934395,2.8553128242492676,-0.006933629512786865,-1.7166136956348055e-07,0.49405813217163086,-0.00042780768126249313,1.716613724056515e-06,-0.00033450621413066983,-0.06672762334346771,0.008005606010556221,2.4408673198195174e-05,-0.01770384982228279,-0.1406860202550888,0.0,0.3499999940395355,4.10774810006842e-05,1000.0,420.0
1708935554.5233555,650,-51.38214874267578,-70.52422332763672,0.07452557981014252,0.019589073956012726,2.722541332244873,7.152557373046875e-07,0.08312299847602844,0.48470020294189453,1.9073524981649825e-07,-0.03108307532966137,0.014045966789126396,0.27502790093421936,-0.0023193371016532183,-0.01833905652165413,89.54130554199219,0.0,0.3499999940395355,0.001053894986398518,1000.0,420.0
1708935554.5233555,649,-43.79718780517578,70.77313995361328,0.07452348619699478,0.018609898164868355,-2.796018362045288,7.152557373046875e-07,0.005085039883852005,-0.5025506019592285,1.068115216185106e-05,-0.07159247994422913,-0.00020876791677437723,0.003056097077205777,4.80697926832363e-05,-0.01815464161336422,-89.62047576904297,0.0,0.3499999940395355,4.5825519919162616e-05,1000.0,420.0
1708935554.5233555,648,-102.8817138671875,6.299191951751709,0.01903552934527397,3.0993874073028564,-0.009091361425817013,4.1007993445418833e-07,0.40219783782958984,-0.027526747435331345,2.7656551537802443e-06,0.005911288317292929,0.04093058779835701,-0.23430193960666656,-0.0006103515625,-0.014862490817904472,-0.1054687425494194,0.0,0.3499999940395355,-0.0015643128426745534,1000.0,420.0
1708935554.5233555,655,-47.2859992980957,69.4075927734375,0.07452478259801865,0.017154572531580925,-2.732631206512451,-3.814697180359872e-08,-0.01420518383383751,-0.4828619956970215,5.149840944795869e-06,0.030926454812288284,-0.002861148677766323,0.4070611596107483,-6.103481427999213e-05,-0.01824343390762806,-89.77245330810547,0.0,0.3499999940395355,0.003249962581321597,1000.0,420.0
1708935554.5233555,654,-54.88658905029297,-71.2696533203125,0.07452022284269333,0.016971224918961525,2.7195985317230225,9.250640573554847e-07,0.02578018233180046,0.48638105392456055,-1.7070769899873994e-05,0.037981245666742325,0.003655899316072464,-0.37804967164993286,-0.0006408688495866954,-0.01785411313176155,89.54021453857422,0.0,0.3499999940395355,0.0023656203411519527,1000.0,420.0
1708935554.5233555,653,9.93697738647461,-0.977351725101471,0.019062155857682228,-2.8091328144073486,0.007792454678565264,-5.435943535303522e-07,-0.4679727554321289,0.018268205225467682,1.7166138377433526e-06,-0.003451728727668524,0.03622172400355339,-0.3084835708141327,-6.103516352595761e-05,-0.017212076112627983,179.71456909179688,0.0,0.3499999940395355,0.0030134900007396936,1000.0,420.0
1708935554.5233555,652,10.94428539276123,-4.477174758911133,0.01903451792895794,-2.9516103267669678,0.006951705552637577,-1.907348590179936e-08,-0.33205270767211914,0.0003115599974989891,1.4019013178767636e-05,0.002109191380441189,-0.025351647287607193,-0.13048739731311798,5.8337471273262054e-05,-0.014773698523640633,179.87623596191406,0.0,0.3499999940395355,-0.00021778592781629413,1000.0,420.0
1708935554.7201607,651,-105.07380676269531,2.8046677112579346,0.01902090013027191,2.9701998233795166,-0.00979079119861126,-7.438659395120339e-07,0.4034876823425293,-0.03026556223630905,-7.152557373046875e-06,0.0005859798984602094,-0.04139775410294533,0.2509843707084656,-0.0012512205867096782,-0.013585245236754417,-0.1199340745806694,0.0,0.3499999940395355,-0.0016533174784854054,1000.0,420.0
1708935554.7201607,650,-51.37561798095703,-69.40071868896484,0.07450936734676361,0.013805042952299118,2.9067461490631104,-3.52859501617786e-07,-0.03185238689184189,0.4462003707885742,5.722043283640232e-07,-0.02774423360824585,-0.005446028430014849,0.4779825806617737,0.001536248135380447,-0.016911547631025314,89.56350708007812,0.0,0.3499999940395355,0.0041533648036420345,1000.0,420.0
1708935554.7201607,649,-43.78804016113281,69.31298828125,0.07447455823421478,0.02027531899511814,-3.0033557415008545,-5.722045557376987e-07,0.02650761976838112,-0.4135751724243164,-1.2493132999225054e-05,-0.03668912500143051,0.0069691892713308334,0.32383161783218384,0.0005864307167939842,-0.013858453370630741,-89.5938720703125,0.0,0.3499999940395355,-0.00037155841710045934,1000.0,420.0
1708935554.7201607,648,-101.6143798828125,6.296048641204834,0.01902824267745018,3.2527458667755127,-0.00751539459452033,-1.077651972991589e-06,0.37135839462280273,-0.00029739923775196075,-1.71661376953125e-05,0.0013470795238390565,0.031951356679201126,-0.20188087224960327,0.0002041910047410056,-0.01422045286744833,-0.09674072265625,0.0,0.3499999940395355,-0.0008901854162104428,1000.0,420.0
1708935554.7201607,655,-47.2772102355957,67.9870834350586,0.07450469583272934,0.01899801380932331,-2.959491491317749,-5.81741346650233e-07,0.0277739018201828,-0.4348325729370117,-6.103515261202119e-06,0.026683997362852097,0.007966766133904457,0.4005507528781891,0.00033372294274158776,-0.016508566215634346,-89.74761199951172,0.0,0.3499999940395355,0.002901684958487749,1000.0,420.0
1708935554.7201607,654,-54.877967834472656,-69.84589385986328,0.074500672519207,0.019033383578062057,2.9484169483184814,9.536742595628311e-08,0.027674809098243713,0.4387378692626953,3.623962356869015e-06,0.033353954553604126,0.003398873144760728,-0.3448878228664398,-0.0008239741437137127,-0.016146566718816757,89.55421447753906,0.0,0.3499999940395355,0.001764799584634602,1000.0,420.0
1708935554.7201607,653,8.470995903015137,-0.9734137654304504,0.019043121486902237,-3.029068946838379,0.006341296713799238,-8.583068478174027e-08,-0.4218149185180664,-0.06046951189637184,1.3351439065445447e-06,0.01833558827638626,0.0315338559448719,-0.22674183547496796,0.0009162321803160012,-0.01553184911608696,179.74903869628906,0.0,0.3499999940395355,0.003208960173651576,1000.0,420.0
1708935554.7201607,652,9.42343521118164,-4.473062515258789,0.01903552934527397,-3.1511852741241455,0.0076036904938519,-7.343292054429185e-07,-0.39281606674194336,0.0030052661895751953,-3.337860107421875e-06,-0.0017441798700019717,-0.03674985095858574,-0.1998894214630127,0.0001336363930022344,-0.014862490817904472,179.90150451660156,0.0,0.3499999940395355,-0.0009798227110877633,1000.0,420.0
1708935555.0006695,651,-103.21043395996094,2.799813985824585,0.01902618445456028,3.210575819015503,-0.004452036693692207,2.8610228852699038e-08,0.3823518753051758,0.06511212885379791,-2.7656553811539197e-06,-0.012986822053790092,-0.03828556835651398,0.3255504071712494,0.0020158723928034306,-0.01404286827892065,-0.0950622484087944,0.0,0.3499999940395355,0.0005114448140375316,1000.0,420.0
1708935555.0006695,650,-51.36643600463867,-67.89712524414062,0.07449029386043549,0.020194662734866142,3.116300582885742,1.5258788721439487e-07,0.027282778173685074,0.4014301300048828,-2.19345088225964e-06,-0.023713281378149986,0.00341499550268054,0.3054581582546234,-0.0008850098238326609,-0.01525864191353321,89.57550811767578,0.0,0.3499999940395355,0.0013228802708908916,1000.0,420.0
1708935555.0006695,649,-43.77810287475586,67.75407409667969,0.07447730749845505,0.021573776379227638,-3.2029926776885986,-4.1961669694501325e-07,0.03853229805827141,-0.38355350494384766,-2.47955313170678e-06,-0.03852603957056999,0.009506842121481895,0.24181494116783142,0.000598518701735884,-0.014097509905695915,-89.58336639404297,0.0,0.3499999940395355,-0.0007026310195215046,1000.0,420.0
1708935555.0006695,648,-99.94751739501953,6.292171955108643,0.019011497497558594,3.4267709255218506,-0.008316709659993649,8.106231348392612e-07,0.3328895568847656,-0.01001500990241766,6.580352419405244e-06,0.0035581602714955807,0.02720375545322895,-0.2178453803062439,-0.00015258787607308477,-0.012786113657057285,-0.10113525390625,0.0,0.3499999940395355,-0.0009784091962501407,1000.0,420.0
1708935555.0006695,655,-47.26740646362305,66.4583511352539,0.07448600232601166,0.019970012828707695,-3.1637020111083984,-2.288818308215923e-07,0.020032543689012527,-0.3909420967102051,1.4305113609225373e-06,0.02274560183286667,0.007965168915688992,0.34683042764663696,-6.103481427999213e-05,-0.014862490817904472,-89.7146224975586,0.0,0.3499999940395355,0.0019340410362929106,1000.0,420.0
1708935555.0006695,654,-54.87059783935547,-68.6286849975586,0.07448592782020569,0.018829096108675003,3.1149563789367676,2.288818308215923e-07,0.015092603862285614,0.40311098098754883,2.8610227218450746e-06,0.029768357053399086,0.002562478883191943,-0.28041452169418335,0.0,-0.014862490817904472,89.57274627685547,0.0,0.3499999940395355,0.001939031993970275,1000.0,420.0
1708935555.0006695,653,6.901365756988525,-0.969255268573761,0.01902555488049984,-3.2268800735473633,0.010449941270053387,-4.482269275740691e-07,-0.37882089614868164,0.013172710314393044,-1.3637541997013614e-05,0.0034692101180553436,0.027249375358223915,-0.32454368472099304,-0.001251220703125,-0.013981396332383156,179.77664184570312,0.0,0.3499999940395355,0.0008403502288274467,1000.0,420.0
1708935555.0006695,652,8.136066436767578,-4.469978332519531,0.019023703411221504,-3.300340175628662,0.007730287034064531,-1.0490417423625331e-07,-0.36095142364501953,0.002719024196267128,2.2888182229507947e-06,-0.001675311359576881,-0.03057640790939331,-0.21194849908351898,4.6166791435098276e-05,-0.013824301771819592,179.90469360351562,0.0,0.3499999940395355,-0.0009838467231020331,1000.0,420.0
1708935555.284603,651,-101.8922119140625,2.796750068664551,0.0190130602568388,3.355445146560669,-0.007148162927478552,3.623962356869015e-07,0.350494384765625,0.011848327703773975,1.7166138377433526e-06,-0.0023778912145644426,-0.03430384770035744,0.2082182765007019,0.00047120143426582217,-0.0129090566188097,-0.0962524339556694,0.0,0.3499999940395355,-0.0006003359449096024,1000.0,420.0
1708935555.284603,650,-51.35664749145508,-66.29368591308594,0.07447259873151779,0.01871960051357746,3.3044934272766113,2.384185791015625e-07,0.0023839622735977173,0.36013364791870117,-2.2888182229507947e-06,-0.019954536110162735,0.002093520015478134,0.3610202372074127,0.0006486970232799649,-0.013694528490304947,89.59679412841797,0.0,0.3499999940395355,0.002029519760981202,1000.0,420.0
1708935555.284603,649,-43.76457595825195,65.76005554199219,0.07445792853832245,0.0230100117623806,-3.4165890216827393,1.23977656585339e-07,-0.041046347469091415,-0.33712148666381836,-2.670288040462765e-06,-0.032394617795944214,-0.014010238461196423,0.17230775952339172,-9.155304724117741e-05,-0.012424113228917122,-89.57696533203125,0.0,0.3499999940395355,-0.0009133490966632962,1000.0,420.0
1708935555.284603,648,-97.83856964111328,6.28717041015625,0.018993282690644264,3.611588954925537,-0.009148508310317993,3.52859501617786e-07,0.2908134460449219,0.0021121464669704437,7.05719003235572e-06,-0.0010262306313961744,0.022217055782675743,-0.202347069978714,-0.00024414061044808477,-0.011174188926815987,-0.11764524132013321,0.0,0.3499999940395355,-0.0007277567638084292,1000.0,420.0
1708935555.284603,655,-47.25442123413086,64.49640655517578,0.07446537166833878,0.021964263170957565,-3.381258249282837,-2.8610228852699038e-08,-0.049497075378894806,-0.34358978271484375,-1.3351440202313825e-06,0.01855284720659256,-0.013976107351481915,0.2972305119037628,-0.0005187983624637127,-0.013059320859611034,-89.67063903808594,0.0,0.3499999940395355,0.001092091086320579,1000.0,420.0
1708935555.284603,654,-54.85881042480469,-66.68563842773438,0.0744655579328537,0.017407801002264023,3.339386224746704,-1.907348590179936e-08,-0.028396248817443848,0.3540158271789551,-1.6212461559916846e-06,0.024722272530198097,-0.005953836254775524,-0.17065653204917908,0.001221856684423983,-0.01309347152709961,89.60265350341797,0.0,0.3499999940395355,0.0024714749306440353,1000.0,420.0
1708935555.284603,653,5.238652229309082,-0.9645087718963623,0.01900913193821907,-3.404327630996704,0.008622436784207821,8.678435960973729e-07,-0.3394007682800293,0.002155173569917679,7.343292054429185e-06,-0.0010453914292156696,0.02326938509941101,-0.220481276512146,0.0003422223962843418,-0.012574377469718456,179.7935333251953,0.0,0.3499999940395355,0.0015020007267594337,1000.0,420.0
1708935555.284603,652,6.098618030548096,-4.465141773223877,0.01900426857173443,-3.501030921936035,0.008784562349319458,2.288818308215923e-07,-0.31635046005249023,-0.014984672889113426,2.2888182229507947e-06,0.004199640359729528,-0.02522355318069458,-0.21285861730575562,0.0,-0.012150906026363373,179.88900756835938,0.0,0.3499999940395355,-0.0008524873410351574,1000.0,420.0
1708935555.579313,651,-99.81327056884766,2.791952133178711,0.018994921818375587,3.5501396656036377,-0.0073263696394860744,-1.1062621751989354e-06,0.30655384063720703,0.01441106665879488,-5.149840944795869e-06,-0.0015698022907599807,-0.02858961932361126,0.1882244199514389,0.0006972926203161478,-0.011324453167617321,-0.1088561937212944,0.0,0.3499999940395355,-0.0001941029477166012,1000.0,420.0
1708935555.579313,655,-47.25015640258789,63.81430435180664,0.0744590014219284,0.021084977313876152,-3.4476444721221924,4.2915343101412873e-07,-0.003960076719522476,-0.3282451629638672,6.389617738022935e-06,0.017111634835600853,0.0031714437063783407,0.2524593472480774,-0.0008544918964616954,-0.012512905523180962,-89.6719741821289,0.0,0.3499999940395355,0.0005675216671079397,1000.0,420.0
1708935555.579313,649,-43.75510025024414,64.36369323730469,0.07444604486227036,0.023178720846772194,-3.5440351963043213,4.482269275740691e-07,-0.012813638895750046,-0.3079795837402344,4.768372718899627e-07,-0.028735317289829254,-0.0037117290776222944,0.13285315036773682,-0.00036621050094254315,-0.011385925114154816,-89.58788299560547,0.0,0.3499999940395355,-0.0009406958124600351,1000.0,420.0
1708935555.579313,648,-96.00076293945312,6.282907009124756,0.01897968165576458,3.747422695159912,-0.009228955954313278,-7.152557373046875e-07,0.25936365127563477,-9.95490700006485e-05,-1.6498564946232364e-05,-0.00016553953173570335,0.018629340454936028,-0.17305798828601837,-0.00012207029067212716,-0.009978906251490116,-0.125701904296875,0.0,0.3499999940395355,-0.00042221497278660536,1000.0,420.0
1708935555.579313,650,-51.3378791809082,-63.188133239746094,0.07444456219673157,0.020536944270133972,3.595059394836426,7.534026735811494e-07,-0.014878828078508377,0.29465675354003906,-7.629398623976158e-07,-0.014111369848251343,-0.004430103115737438,0.2958296239376068,0.00041849122499115765,-0.011262981221079826,89.62850952148438,0.0,0.3499999940395355,0.0011727705132216215,1000.0,420.0
1708935555.579313,654,-54.84645462036133,-64.61732482910156,0.07444736361503601,0.02095365896821022,3.5360031127929688,-6.67572024326546e-08,-0.0013597868382930756,0.3096890449523926,-3.43322744811303e-06,0.02022329904139042,-0.0019904356449842453,-0.22589638829231262,0.0,-0.011502037756145,89.62229919433594,0.0,0.3499999940395355,0.0009213954326696694,1000.0,420.0
1708935555.579313,653,2.7727982997894287,-0.9581289291381836,0.018988780677318573,-3.621769905090332,0.008818347938358784,2.0313261757110013e-06,-0.28998613357543945,0.009306259453296661,1.9359587895451114e-05,-0.0012741128448396921,0.018261320888996124,-0.20851916074752808,-0.00012207029067212716,-0.010771207511425018,179.8268280029297,0.0,0.3499999940395355,0.0008116946555674076,1000.0,420.0
1708935555.579313,652,3.579207181930542,-4.459281921386719,0.018984030932188034,-3.703345775604248,0.009374641813337803,-1.907348590179936e-08,-0.26957273483276367,0.0026827864348888397,5.5313107623078395e-06,-0.00013754561950918287,-0.019793227314949036,-0.18885257840156555,-0.0003051756648346782,-0.01037505641579628,179.87692260742188,0.0,0.3499999940395355,-0.000593027682043612,1000.0,420.0
1708935556.0248368,651,-96.87545776367188,2.785073757171631,0.018973788246512413,3.7716448307037354,-0.0084857027977705,-1.0490417423625331e-07,0.2552151679992676,0.012694261968135834,-2.384185791015625e-06,-0.0027404273860156536,-0.02198459953069687,0.14565035700798035,0.00031396676786243916,-0.009459811262786388,-0.125946044921875,0.0,0.3499999940395355,-4.876036837231368e-05,1000.0,420.0
1708935556.0248368,650,-51.32918930053711,-61.72869873046875,0.07443353533744812,0.021441083401441574,3.7064120769500732,-2.384185791015625e-07,-0.012452378869056702,0.26894330978393555,-1.239776611328125e-05,-0.011888944543898106,-0.004295364487916231,0.2610446512699127,0.0002241076435893774,-0.01028626412153244,89.63937377929688,0.0,0.3499999940395355,0.0007867564563639462,1000.0,420.0
1708935556.0248368,649,-43.735374450683594,61.43031692504883,0.07442479580640793,0.02439168468117714,-3.766547203063965,-1.5258788721439487e-07,0.0013394653797149658,-0.256350040435791,-6.8664553509734105e-06,-0.022144833579659462,0.0009072615066543221,0.1063125804066658,-0.0003662113449536264,-0.009521283209323883,-89.60760498046875,0.0,0.3499999940395355,-0.0005433410406112671,1000.0,420.0
1708935556.0248368,648,-92.53463745117188,6.27463960647583,0.018958376720547676,3.9555976390838623,-0.00981084443628788,-9.441375254937157e-07,0.210113525390625,-0.00364597886800766,-2.2220610844669864e-05,0.000841789529658854,0.013071133755147457,-0.12712888419628143,-9.155274165095761e-05,-0.008121094666421413,-0.1374816745519638,0.0,0.3499999940395355,-0.00014316019951365888,1000.0,420.0
1708935556.0248368,655,-47.222312927246094,59.4670295715332,0.07442533224821091,0.025515692308545113,-3.7885754108428955,-6.67572024326546e-08,0.017427783459424973,-0.24956464767456055,1.6212461559916846e-06,0.010214027017354965,0.00428754324093461,0.25668343901634216,0.00037353928200900555,-0.009555433876812458,-89.64291381835938,0.0,0.3499999940395355,0.0007834117859601974,1000.0,420.0
1708935556.0248368,654,-54.82912063598633,-61.6916389465332,0.07442592084407806,0.021782709285616875,3.759894609451294,-3.337860050578456e-07,0.002479851245880127,0.25787830352783203,-2.384185791015625e-06,0.015025606378912926,-7.708287739660591e-05,-0.19167795777320862,0.00010234152432531118,-0.009616905823349953,89.64429473876953,0.0,0.3499999940395355,0.0005721167544834316,1000.0,420.0
1708935556.0248368,653,-0.5998826622962952,-0.949415385723114,0.018966274335980415,-3.854827880859375,0.009133115410804749,1.115798909268051e-06,-0.2356553077697754,-0.012183468788862228,1.201629675051663e-05,0.004035180900245905,0.012809292413294315,-0.17328479886054993,0.00024988199584186077,-0.008824603632092476,179.84231567382812,0.0,0.3499999940395355,0.0005384034593589604,1000.0,420.0
1708935556.0248368,652,0.5397104620933533,-4.452078342437744,0.01896434649825096,-3.898013114929199,0.0097324438393116,4.768371297814156e-08,-0.22390127182006836,0.008352864533662796,6.86645489622606e-06,-0.002413258422166109,-0.014554431661963463,-0.14372313022613525,-0.000152587890625,-0.008640188723802567,179.8649139404297,0.0,0.3499999940395355,-0.00023327537928707898,1000.0,420.0
1708935556.4647174,651,-93.77731323242188,2.77760910987854,0.01895580254495144,3.955678939819336,-0.009655124507844448,-3.52859501617786e-07,0.21147966384887695,0.0012185890227556229,-2.8610230629055877e-07,-0.0005052504129707813,-0.016513347625732422,0.10816596448421478,-3.051757266803179e-05,-0.007902528159320354,-0.136993408203125,0.0,0.3499999940395355,-5.990232966723852e-05,1000.0,420.0
1708935556.4647174,654,-54.817752838134766,-59.778778076171875,0.07441415637731552,0.022170037031173706,3.8802425861358643,5.7220457705398076e-08,-0.013843607157468796,0.22974014282226562,-2.2888182229507947e-06,0.012145442888140678,-0.004211524501442909,-0.1666146069765091,0.00038245637551881373,-0.008606038056313992,89.65013122558594,0.0,0.3499999940395355,0.000557748309802264,1000.0,420.0
1708935556.4647174,649,-43.714744567871094,58.33588409423828,0.07440673559904099,0.02580634132027626,-3.9514431953430176,6.00814814788464e-07,-0.010517947375774384,-0.21255016326904297,-3.1471249712922145e-06,-0.01661909557878971,-0.0034698706585913897,0.0961749255657196,-0.00021362307597883046,-0.007936679758131504,-89.61711883544922,0.0,0.3499999940395355,-0.00022032481501810253,1000.0,420.0
1708935556.4647174,648,-89.71976470947266,6.267767429351807,0.018941154703497887,4.085700988769531,-0.010117664001882076,3.8146970382513246e-07,0.17131805419921875,-0.0009404495358467102,4.00543194700731e-06,3.5720207961276174e-05,0.0027347151190042496,-0.005144595168530941,-6.103515261202119e-05,-0.006625283043831587,-0.139739990234375,0.0,0.3499999940395355,-5.732026693294756e-05,1000.0,420.0
1708935556.4647174,655,-47.20705032348633,57.15261459350586,0.0744113177061081,0.02618253603577614,-3.9267220497131348,-2.384185791015625e-07,0.0008124485611915588,-0.21680355072021484,-3.623962356869015e-06,0.007256625220179558,0.0002869953459594399,0.212050199508667,-6.103480700403452e-05,-0.008332829922437668,-89.628173828125,0.0,0.3499999940395355,0.00029120416729710996,1000.0,420.0
1708935556.4647174,650,-51.30649948120117,-57.901161193847656,0.07440944761037827,0.02290818654000759,3.9435219764709473,6.580352760465757e-07,0.0014965236186981201,0.21234512329101562,4.76837158203125e-06,-0.006651475094258785,0.0006634350284002721,0.21843573451042175,0.00015871059440542012,-0.008182566612958908,89.6559066772461,0.0,0.3499999940395355,0.0003237419587094337,1000.0,420.0
1708935556.4647174,653,-2.1614482402801514,-0.9454855918884277,0.01895759627223015,-3.9439713954925537,0.009816125966608524,6.67572024326546e-08,-0.21611452102661133,0.006405562162399292,3.2424923119833693e-06,-0.0013995470944792032,0.009982801042497158,-0.19238147139549255,0.0,-0.008059622719883919,179.8479461669922,0.0,0.3499999940395355,0.00020613001834135503,1000.0,420.0
1708935556.4647174,652,-1.0353093147277832,-4.4482526779174805,0.0189555361866951,-3.9824657440185547,0.00988664012402296,-8.583068478174027e-08,-0.20368576049804688,-0.0003495253622531891,3.623962356869015e-06,0.00044267959310673177,-0.012363745830953121,-0.1195831447839737,-9.1552734375e-05,-0.00787520781159401,179.8611297607422,0.0,0.3499999940395355,-0.00010755620314739645,1000.0,420.0
1708935556.6869714,651,-92.17687225341797,2.773719310760498,0.018947944045066833,4.035615921020508,-0.01003224216401577,5.435943535303522e-07,0.19358158111572266,-0.0035141129046678543,2.956390289909905e-06,0.0006549367681145668,-0.01360244955867529,0.08488846570253372,-9.155274165095761e-05,-0.007205849047750235,-0.138702392578125,0.0,0.3499999940395355,-8.820012590149418e-05,1000.0,420.0
1708935556.6869714,652,-1.835180640220642,-4.4463019371032715,0.018951471894979477,-4.021762371063232,0.010140853933990002,-6.771087441848067e-07,-0.19408226013183594,0.005689309909939766,-1.7166138377433526e-06,-0.0013302576262503862,-0.011196640320122242,-0.11350547522306442,-0.00015258786152116954,-0.007506377529352903,179.8602294921875,0.0,0.3499999940395355,-0.00014489347813650966,1000.0,420.0
1708935556.6869714,649,-43.706825256347656,57.13970184326172,0.07440073043107986,0.02629081904888153,-4.012293815612793,-8.583068478174027e-08,-0.004869867116212845,-0.19823789596557617,2.2888182229507947e-06,-0.014674200676381588,-0.0018324214033782482,0.09115245938301086,-0.00012207044346723706,-0.007417585235089064,-89.61935424804688,0.0,0.3499999940395355,-0.0001278707932215184,1000.0,420.0
1708935556.6869714,648,-88.48655700683594,6.264769554138184,0.018937472254037857,4.136219024658203,-0.010269446298480034,-5.7220457705398076e-08,0.1651620864868164,-0.0012981053441762924,-2.384185791015625e-06,-0.00011512780474731699,0.0036253577563911676,-0.006183339282870293,-0.00012207030522404239,-0.006290603894740343,-0.139739990234375,0.0,0.3499999940395355,-6.824114825576544e-05,1000.0,420.0
1708935556.6869714,655,-47.1966438293457,55.56636047363281,0.07439800351858139,0.026571108028292656,-4.003087997436523,-3.623962356869015e-07,0.0047446973621845245,-0.19147396087646484,-3.814697265625e-06,-0.0015548169612884521,0.0010994841577485204,0.30897384881973267,7.421452028211206e-05,-0.00717169838026166,-89.62432098388672,0.0,0.3499999940395355,0.0001679954439168796,1000.0,420.0
1708935556.6869714,654,-54.80374526977539,-57.410072326660156,0.07439767569303513,0.023246504366397858,4.005862712860107,5.81741346650233e-07,0.0015702471137046814,0.19160747528076172,8.77380352903856e-06,0.0013110744766891003,0.00032404533703811467,-0.27382466197013855,0.00014137873949948698,-0.007144377566874027,89.65776062011719,0.0,0.3499999940395355,0.00021683238446712494,1000.0,420.0
1708935556.6869714,653,-4.564289569854736,-0.9395963549613953,0.018944568932056427,-4.0598626136779785,0.009611258283257484,-5.626678216685832e-07,-0.18285751342773438,0.0018020346760749817,-1.0013580322265625e-05,-0.000260841625276953,0.0010339240543544292,-0.2640419602394104,1.6404899724875577e-05,-0.006898490712046623,179.85813903808594,0.0,0.3499999940395355,0.00012481726298574358,1000.0,420.0
1708935556.6869714,650,-51.29232406616211,-55.50115203857422,0.07439527660608292,0.023592311888933182,4.055379390716553,-2.193450825416221e-07,0.0007960759103298187,0.183868408203125,-3.43322744811303e-06,0.000966359453741461,0.0005795038305222988,0.2918074131011963,0.00016240499098785222,-0.006925811525434256,89.6622314453125,0.0,0.3499999940395355,0.00016219113604165614,1000.0,420.0
1708935556.9765875,651,-90.54683685302734,2.7697596549987793,0.01893848367035389,4.107089996337891,-0.009944918565452099,2.0027160019253643e-07,0.1710987091064453,0.0014785677194595337,-1.4305113609225373e-06,-0.0004965504049323499,-0.005610432475805283,0.0013770066434517503,4.874780643149279e-05,-0.006379396189004183,-0.139373779296875,0.0,0.3499999940395355,1.76171070052078e-05,1000.0,420.0
1708935556.9765875,650,-51.29232406616211,-55.50115203857422,0.07439527660608292,0.023592311888933182,4.055379390716553,-2.193450825416221e-07,0.0007960759103298187,0.183868408203125,-3.43322744811303e-06,0.000966359453741461,0.0005795038305222988,0.2918074131011963,0.00016240499098785222,-0.006925811525434256,89.6622314453125,0.0,0.3499999940395355,0.00016219113604165614,1000.0,420.0
1708935556.9765875,649,-43.69342803955078,55.10843276977539,0.07438915222883224,0.0270010344684124,-4.103633403778076,1.8119811784345075e-07,0.0011016055941581726,-0.17159461975097656,-7.24792471373803e-06,-0.005707385018467903,0.000256405386608094,-0.005050166975706816,-6.103543273638934e-05,-0.006406717002391815,-89.62100219726562,0.0,0.3499999940395355,-5.5182572396006435e-05,1000.0,420.0
1708935556.9765875,648,-86.39910125732422,6.259669780731201,0.018930377438664436,4.213270664215088,-0.010264961048960686,-2.384185791015625e-07,0.14688968658447266,0.00040440820157527924,-1.9073486328125e-06,-0.0001240545097971335,0.002740050433203578,0.0010542632080614567,3.0105609766906127e-05,-0.005675886757671833,-0.1400146335363388,0.0,0.3499999940395355,1.2089240954082925e-05,1000.0,420.0
1708935556.9765875,655,-47.18327713012695,53.54109573364258,0.07439222186803818,0.027998430654406548,-4.094485759735107,1.907348590179936e-08,0.017217565327882767,-0.17466068267822266,2.3841855636419496e-06,-0.0014421549858525395,0.0036320313811302185,0.29499682784080505,0.0004771545936819166,-0.006652603857219219,-89.61988067626953,0.0,0.3499999940395355,0.0003595463640522212,1000.0,420.0
1708935556.9765875,654,-54.79177474975586,-55.38349151611328,0.0743919163942337,0.023884816095232964,4.09699821472168,6.866454782539222e-07,-0.0005220435559749603,0.17425060272216797,5.435943421616685e-06,0.001416293904185295,-0.0002273877471452579,-0.2537333369255066,0.000104022394225467,-0.006652603857219219,89.66060638427734,0.0,0.3499999940395355,0.00010566382115939632,1000.0,420.0
1708935556.9765875,653,-6.616402626037598,-0.9346071481704712,0.018936747685074806,-4.145218849182129,0.00999768078327179,-3.0517577442878974e-07,-0.16282081604003906,-0.0014465954154729843,-3.52859501617786e-06,0.0007536928169429302,0.0014102242421358824,-0.2445199340581894,1.3382731594901998e-05,-0.006229132413864136,179.85931396484375,0.0,0.3499999940395355,2.935153133876156e-05,1000.0,420.0
1708935556.9765875,652,-5.941623210906982,-4.436243057250977,0.018933027982711792,-4.188297271728516,0.010405727662146091,1.0490417707842425e-06,-0.15286922454833984,0.0039517320692539215,2.288818905071821e-06,-0.0008215167908929288,-0.0028808098286390305,-0.005509252659976482,-9.155274165095761e-05,-0.005894452799111605,179.85997009277344,0.0,0.3499999940395355,-6.390290946001187e-05,1000.0,420.0
1708935557.3040648,651,-87.6309585571289,2.762641191482544,0.018929289653897285,4.216925144195557,-0.010306762531399727,-1.077651972991589e-06,0.14603614807128906,-0.0006537977606058121,-8.77380352903856e-06,5.896064612898044e-05,-0.005276225972920656,-0.00040785587043501437,0.0,-0.005580264143645763,-0.1398620754480362,0.0,0.3499999940395355,-4.806012384506175e-06,1000.0,420.0
1708935557.3040648,655,-47.169559478759766,51.47266387939453,0.07438407838344574,0.02798367664217949,-4.176004409790039,0.0,0.004040207713842392,-0.15540122985839844,-2.8610227218450746e-06,-0.001371522550471127,0.0004829431127291173,0.24499665200710297,0.00013206226867623627,-0.005955924745649099,-89.61821746826172,0.0,0.3499999940395355,9.496733400737867e-05,1000.0,420.0
